{
  "type": "FeatureCollection",
  "features": [
    {
      "type": "Feature",
      "geometry": {
        "type": "Point",
        "coordinates": [
          -97.4374236,
          27.7372208
        ]
      },
      "properties": {
        "stop_id": "0:2521",
        "stop_name": "Wal Mart",
        "route_id": "25",
        "type": "bus_stop"
      }
    },
    {
      "type": "Feature",
      "geometry": {
        "type": "Point",
        "coordinates": [
          -97.4424288,
          27.7409519
        ]
      },
      "properties": {
        "stop_id": "0:1604",
        "stop_name": "1604-Greenwood @ SPID",
        "route_id": "25",
        "type": "bus_stop"
      }
    },
    {
      "type": "Feature",
      "geometry": {
        "type": "Point",
        "coordinates": [
          -97.4403155,
          27.7444403
        ]
      },
      "properties": {
        "stop_id": "0:0578",
        "stop_name": "578-4934 Greenwood",
        "route_id": "25",
        "type": "bus_stop"
      }
    },
    {
      "type": "Feature",
      "geometry": {
        "type": "Point",
        "coordinates": [
          -97.4387254,
          27.7452518
        ]
      },
      "properties": {
        "stop_id": "0:0104",
        "stop_name": "104-Trojan @ Greenwood",
        "route_id": "25",
        "type": "bus_stop"
      }
    },
    {
      "type": "Feature",
      "geometry": {
        "type": "Point",
        "coordinates": [
          -97.4371631,
          27.7445073
        ]
      },
      "properties": {
        "stop_id": "0:0105",
        "stop_name": "105-Trojan@Waterfall",
        "route_id": "25",
        "type": "bus_stop"
      }
    },
    {
      "type": "Feature",
      "geometry": {
        "type": "Point",
        "coordinates": [
          -97.433737,
          27.7428683
        ]
      },
      "properties": {
        "stop_id": "0:0106",
        "stop_name": "Trojan @ Moody HS",
        "route_id": "25",
        "type": "bus_stop"
      }
    },
    {
      "type": "Feature",
      "geometry": {
        "type": "Point",
        "coordinates": [
          -97.4329137,
          27.7418243
        ]
      },
      "properties": {
        "stop_id": "0:0107",
        "stop_name": "107-Prescott @ Trojan",
        "route_id": "25",
        "type": "bus_stop"
      }
    },
    {
      "type": "Feature",
      "geometry": {
        "type": "Point",
        "coordinates": [
          -97.434001,
          27.7400006
        ]
      },
      "properties": {
        "stop_id": "0:0108",
        "stop_name": "108-Prescott @ SPID",
        "route_id": "25",
        "type": "bus_stop"
      }
    },
    {
      "type": "Feature",
      "geometry": {
        "type": "Point",
        "coordinates": [
          -97.4192908,
          27.7491647
        ]
      },
      "properties": {
        "stop_id": "0:5024",
        "stop_name": "Port Ayers Station Bay G",
        "route_id": "25",
        "type": "bus_stop"
      }
    },
    {
      "type": "Feature",
      "geometry": {
        "type": "Point",
        "coordinates": [
          -97.4193315,
          27.7493019
        ]
      },
      "properties": {
        "stop_id": "0:5023",
        "stop_name": "Port Ayers Station Bay F",
        "route_id": "25",
        "type": "bus_stop"
      }
    },
    {
      "type": "Feature",
      "geometry": {
        "type": "Point",
        "coordinates": [
          -97.434807,
          27.7515987
        ]
      },
      "properties": {
        "stop_id": "0:0032",
        "stop_name": "32-Gollihar @ Falkinson",
        "route_id": "25",
        "type": "bus_stop"
      }
    },
    {
      "type": "Feature",
      "geometry": {
        "type": "Point",
        "coordinates": [
          -97.4323866,
          27.750459
        ]
      },
      "properties": {
        "stop_id": "0:0033",
        "stop_name": "33-Gollihar @ Shaw",
        "route_id": "25",
        "type": "bus_stop"
      }
    },
    {
      "type": "Feature",
      "geometry": {
        "type": "Point",
        "coordinates": [
          -97.4299182,
          27.7492654
        ]
      },
      "properties": {
        "stop_id": "0:0034",
        "stop_name": "34-Gollihar @ Bernadino",
        "route_id": "25",
        "type": "bus_stop"
      }
    },
    {
      "type": "Feature",
      "geometry": {
        "type": "Point",
        "coordinates": [
          -97.4280595,
          27.7483585
        ]
      },
      "properties": {
        "stop_id": "0:0060",
        "stop_name": "60-Gollihar  @ Prescott",
        "route_id": "25",
        "type": "bus_stop"
      }
    },
    {
      "type": "Feature",
      "geometry": {
        "type": "Point",
        "coordinates": [
          -97.4269737,
          27.74783
        ]
      },
      "properties": {
        "stop_id": "0:0061",
        "stop_name": "61-Gollihar  @ Larkspur",
        "route_id": "25",
        "type": "bus_stop"
      }
    },
    {
      "type": "Feature",
      "geometry": {
        "type": "Point",
        "coordinates": [
          -97.4221702,
          27.745544
        ]
      },
      "properties": {
        "stop_id": "0:0062",
        "stop_name": "62-Gollihar  @  Ayers",
        "route_id": "25",
        "type": "bus_stop"
      }
    },
    {
      "type": "Feature",
      "geometry": {
        "type": "Point",
        "coordinates": [
          -97.4227459,
          27.7460154
        ]
      },
      "properties": {
        "stop_id": "0:0081",
        "stop_name": "81-Gollihar  @  Dillon",
        "route_id": "25",
        "type": "bus_stop"
      }
    },
    {
      "type": "Feature",
      "geometry": {
        "type": "Point",
        "coordinates": [
          -97.4263868,
          27.7477832
        ]
      },
      "properties": {
        "stop_id": "0:0082",
        "stop_name": "82-Gollihar  @ Larkspur",
        "route_id": "25",
        "type": "bus_stop"
      }
    },
    {
      "type": "Feature",
      "geometry": {
        "type": "Point",
        "coordinates": [
          -97.4281898,
          27.748673
        ]
      },
      "properties": {
        "stop_id": "0:0083",
        "stop_name": "83-Gollihar  @ Prescott",
        "route_id": "25",
        "type": "bus_stop"
      }
    },
    {
      "type": "Feature",
      "geometry": {
        "type": "Point",
        "coordinates": [
          -97.4304547,
          27.749691
        ]
      },
      "properties": {
        "stop_id": "0:0029",
        "stop_name": "29-Gollihar  @Bernadino",
        "route_id": "25",
        "type": "bus_stop"
      }
    },
    {
      "type": "Feature",
      "geometry": {
        "type": "Point",
        "coordinates": [
          -97.4326258,
          27.7507448
        ]
      },
      "properties": {
        "stop_id": "0:0030",
        "stop_name": "30-Gollihar  @  Shaw",
        "route_id": "25",
        "type": "bus_stop"
      }
    },
    {
      "type": "Feature",
      "geometry": {
        "type": "Point",
        "coordinates": [
          -97.4344993,
          27.7516618
        ]
      },
      "properties": {
        "stop_id": "0:0031",
        "stop_name": "31-Gollihar  @Falkinson",
        "route_id": "25",
        "type": "bus_stop"
      }
    },
    {
      "type": "Feature",
      "geometry": {
        "type": "Point",
        "coordinates": [
          -97.4369338,
          27.7503446
        ]
      },
      "properties": {
        "stop_id": "0:0116",
        "stop_name": "Greenwood @WestPoint",
        "route_id": "25",
        "type": "bus_stop"
      }
    },
    {
      "type": "Feature",
      "geometry": {
        "type": "Point",
        "coordinates": [
          -97.4387579,
          27.7472651
        ]
      },
      "properties": {
        "stop_id": "0:0103",
        "stop_name": "103-Greenwood",
        "route_id": "25",
        "type": "bus_stop"
      }
    },
    {
      "type": "Feature",
      "geometry": {
        "type": "Point",
        "coordinates": [
          -97.4386946,
          27.7470215
        ]
      },
      "properties": {
        "stop_id": "0:0113",
        "stop_name": "113-Greenwood @ Hickory",
        "route_id": "25",
        "type": "bus_stop"
      }
    },
    {
      "type": "Feature",
      "geometry": {
        "type": "Point",
        "coordinates": [
          -97.4366627,
          27.7503146
        ]
      },
      "properties": {
        "stop_id": "0:0115",
        "stop_name": "Greenwood @WestPoint",
        "route_id": "25",
        "type": "bus_stop"
      }
    }
  ]
}